$ECGSA,,,,,,,,,,,,,,,,1.30,*63
$ECGSV,1,1,0*58
$SDDBT,3.0,f,0.9,M,0.5,F*09
$SDDPT,0.9,*70
$ECGGA,163929.21,5143.040,N,00427.110,E,1,07,1.30,-3.00,M,-48.00,M,,*44
$ECGLL,5143.040,N,00427.110,E,163929.21,A,A*7B
$ECGSA,,,,,,,,,,,,,,,,1.30,*63
$ECGSV,1,1,0*58
$ECRMC,163929.21,A,5143.040,N,00427.110,E,0.0,135.0,180318,000.0,E,A*23
$ECVTG,135.0,T,135.0,M,0.0,N,0.0,K,A*32
$ECZDA,163929.21,18,03,2018,,*73
$ECMWV,343.5,R,21.0,N,A*09
$ECDTM,W84,,0.000000,S,0.000000,W,0.00,W84*41
$DUAIQ,TXS*3B
$ECGSA,,,,,,,,,,,,,,,,1.30,*63
$ECGSV,1,1,0*58
$SDDBT,3.2,f,0.9,M,0.5,F*0B
$SDDPT,0.9,*70
$ECGGA,163931.12,5143.040,N,00427.110,E,1,07,1.30,-3.00,M,-48.00,M,,*4D
$ECGLL,5143.040,N,00427.110,E,163931.12,A,A*72
$ECGSA,,,,,,,,,,,,,,,,1.30,*63
$ECGSV,1,1,0*58
$ECRMC,163931.12,A,5143.040,N,00427.110,E,0.0,135.0,180318,000.0,E,A*2A
$ECVTG,135.0,T,135.0,M,0.0,N,0.0,K,A*32
$ECZDA,163931.12,18,03,2018,,*7A
$ECMWV,341.5,R,19.8,N,A*08
$DUAIQ,TXS*3B
$ECGSA,,,,,,,,,,,,,,,,1.30,*63
$ECGSV,1,1,0*58
$SDDBT,3.4,f,1.0,M,0.6,F*06
$SDDPT,1.0,*78
$ECGGA,163932.83,5143.040,N,00427.110,E,1,07,1.30,-4.00,M,-48.00,M,,*41
$ECGLL,5143.040,N,00427.110,E,163932.83,A,A*79
$ECGSA,,,,,,,,,,,,,,,,1.30,*63
$ECGSV,1,1,0*58
$ECRMC,163932.83,A,5143.040,N,00427.110,E,0.0,135.0,180318,000.0,E,A*21
$ECVTG,135.0,T,135.0,M,0.0,N,0.0,K,A*32
$ECZDA,163932.83,18,03,2018,,*71
$ECMWV,343.0,R,21.2,N,A*0E
$DUAIQ,TXS*3B
$ECGSA,,,,,,,,,,,,,,,,1.30,*63
$ECGSV,1,1,0*58
$SDDBT,3.5,f,1.0,M,0.6,F*07
$SDDPT,1.0,*78
$ECGGA,163935.14,5143.044,N,00427.108,E,1,07,1.30,-4.00,M,-48.00,M,,*45
$ECGLL,5143.044,N,00427.108,E,163935.14,A,A*7D
$ECGSA,,,,,,,,,,,,,,,,1.30,*63
$ECGSV,1,1,0*58
$ECRMC,163935.14,A,5143.044,N,00427.108,E,0.0,135.0,180318,000.0,E,A*25
$ECVTG,135.0,T,135.0,M,0.0,N,0.0,K,A*32
$ECZDA,163935.14,18,03,2018,,*78
$ECMWV,343.5,R,21.8,N,A*01
$DUAIQ,TXS*3B
$ECGSA,,,,,,,,,,,,,,,,1.30,*63
$ECGSV,1,1,0*58
$SDDBT,3.2,f,0.9,M,0.5,F*0B
$SDDPT,0.9,*70
$ECGGA,163937.04,5143.044,N,00427.108,E,1,07,1.30,-4.00,M,-48.00,M,,*46
$ECGLL,5143.044,N,00427.108,E,163937.04,A,A*7E
$ECGSA,,,,,,,,,,,,,,,,1.30,*63
$ECGSV,1,1,0*58
$ECRMC,163937.04,A,5143.044,N,00427.108,E,0.0,135.0,180318,000.0,E,A*26
$ECVTG,135.0,T,135.0,M,0.0,N,0.0,K,A*32
$ECZDA,163937.04,18,03,2018,,*7B
$ECMWV,345.5,R,19.4,N,A*00
$DUAIQ,TXS*3B
$ECGSA,,,,,,,,,,,,,,,,1.30,*63
$ECGSV,1,1,0*58
$SDDBT,3.4,f,1.0,M,0.6,F*06
$SDDPT,1.0,*78
$ECGGA,163939.24,5143.040,N,00427.110,E,1,07,1.30,-4.00,M,-48.00,M,,*47
$ECGLL,5143.040,N,00427.110,E,163939.24,A,A*7F
$ECGSA,,,,,,,,,,,,,,,,1.30,*63
$ECGSV,1,1,0*58
$ECRMC,163939.24,A,5143.040,N,00427.110,E,0.0,135.0,180318,000.0,E,A*27
$ECVTG,135.0,T,135.0,M,0.0,N,0.0,K,A*32
$ECZDA,163939.24,18,03,2018,,*77
$ECMWV,336.5,R,19.6,N,A*06
$ECDTM,W84,,0.000000,S,0.000000,W,0.00,W84*41
$DUAIQ,TXS*3B
$ECGSA,,,,,,,,,,,,,,,,1.30,*63
$ECGSV,1,1,0*58
$SDDBT,3.3,f,1.0,M,0.6,F*01
$SDDPT,1.0,*78
$ECGGA,163941.05,5143.040,N,00427.110,E,1,07,1.30,-3.00,M,-48.00,M,,*4C
$ECGLL,5143.040,N,00427.110,E,163941.05,A,A*73
$ECGSA,,,,,,,,,,,,,,,,1.30,*63
$ECGSV,1,1,0*58
$ECRMC,163941.05,A,5143.040,N,00427.110,E,0.0,135.0,180318,000.0,E,A*2B
$ECVTG,135.0,T,135.0,M,0.0,N,0.0,K,A*32
$ECZDA,163941.05,18,03,2018,,*7B
$ECMWV,324.5,R,22.4,N,A*0F
$DUAIQ,TXS*3B
$ECGSA,,,,,,,,,,,,,,,,1.30,*63
$ECGSV,1,1,0*58
$SDDBT,3.5,f,1.0,M,0.6,F*07
$SDDPT,1.0,*78
$ECGGA,163943.15,5143.040,N,00427.110,E,1,07,1.30,-3.00,M,-48.00,M,,*4F
$ECGLL,5143.040,N,00427.110,E,163943.15,A,A*70
$ECGSA,,,,,,,,,,,,,,,,1.30,*63
$ECGSV,1,1,0*58
$ECRMC,163943.15,A,5143.040,N,00427.110,E,0.0,135.0,180318,000.0,E,A*28
$ECVTG,135.0,T,135.0,M,0.0,N,0.0,K,A*32
$ECZDA,163943.15,18,03,2018,,*78
$ECMWV,331.0,R,19.0,N,A*02
$DUAIQ,TXS*3B
$ECGSA,,,,,,,,,,,,,,,,1.30,*63
$ECGSV,1,1,0*58
$SDDBT,3.5,f,1.0,M,0.6,F*07
$SDDPT,1.0,*78
$ECGGA,163945.25,5143.040,N,00427.110,E,1,07,1.30,-3.00,M,-48.00,M,,*4A
$ECGLL,5143.040,N,00427.110,E,163945.25,A,A*75
$ECGSA,,,,,,,,,,,,,,,,1.30,*63
$ECGSV,1,1,0*58
$ECRMC,163945.25,A,5143.040,N,00427.110,E,0.0,135.0,180318,000.0,E,A*2D
$ECVTG,135.0,T,135.0,M,0.0,N,0.0,K,A*32
$ECZDA,163945.25,18,03,2018,,*7D
$ECMWV,331.0,R,22.7,N,A*0D
$DUAIQ,TXS*3B
$ECGSA,,,,,,,,,,,,,,,,1.30,*63
$ECGSV,1,1,0*58
$SDDBT,3.0,f,0.9,M,0.5,F*09
$SDDPT,0.9,*70
$ECGGA,163947.05,5143.040,N,00427.110,E,1,07,1.30,-3.00,M,-48.00,M,,*4A
$ECGLL,5143.040,N,00427.110,E,163947.05,A,A*75
$ECGSA,,,,,,,,,,,,,,,,1.30,*63
$ECGSV,1,1,0*58
$ECRMC,163947.05,A,5143.040,N,00427.110,E,0.0,135.0,180318,000.0,E,A*2D
$ECVTG,135.0,T,135.0,M,0.0,N,0.0,K,A*32
$ECZDA,163947.05,18,03,2018,,*7D
$ECMWV,332.5,R,22.7,N
